[{"lat":"23.75","lng":"92.75","id":3370248,"name":"Wonderchef","schedule":"10 AM to 6 PM ","marker_image":"https:\/\/cdn.shopify.com\/s\/files\/1\/0104\/9211\/7092\/files\/location-marker_3.png?7502298235998040035","address":"Book a demo","country":"India","state":"Mizoram","city":"Aizwal","postal":"796007","priority":1},{"lat":"22.569","lng":"88.3697","id":3370249,"name":"Wonderchef","schedule":"10 AM to 6 PM ","marker_image":"https:\/\/cdn.shopify.com\/s\/files\/1\/0104\/9211\/7092\/files\/location-marker_3.png?7502298235998040035","address":"Book a demo","country":"India","state":"West Bengal","city":"Alipore","postal":"700050","priority":1},{"lat":"26.1","lng":"94.2667","id":3370250,"name":"Wonderchef","schedule":"10 AM to 6 PM ","marker_image":"https:\/\/cdn.shopify.com\/s\/files\/1\/0104\/9211\/7092\/files\/location-marker_3.png?7502298235998040035","address":"Book a demo","country":"India","state":"Nagaland","city":"Dimapur","postal":"797112","priority":1},{"lat":"25.8583","lng":"94.2","id":3370251,"name":"Wonderchef","schedule":"10 AM to 6 PM ","marker_image":"https:\/\/cdn.shopify.com\/s\/files\/1\/0104\/9211\/7092\/files\/location-marker_3.png?7502298235998040035","address":"Book a demo","country":"India","state":"Nagaland","city":"Kohima","postal":"797001","priority":1},{"lat":"28.0667","lng":"95.3333","id":3370252,"name":"Wonderchef","schedule":"10 AM to 6 PM ","marker_image":"https:\/\/cdn.shopify.com\/s\/files\/1\/0104\/9211\/7092\/files\/location-marker_3.png?7502298235998040035","address":"Book a demo","country":"India","state":"Arunachal Pradesh","city":"Pasighat ","postal":"791102","priority":1},{"lat":"25.3","lng":"94.05","id":3370253,"name":"Wonderchef","schedule":"10 AM to 6 PM ","marker_image":"https:\/\/cdn.shopify.com\/s\/files\/1\/0104\/9211\/7092\/files\/location-marker_3.png?7502298235998040035","address":"Book a demo","country":"India","state":"Manipur","city":"Senapati","postal":"795106","priority":1},{"lat":"27.4583","lng":"92.0667","id":3370254,"name":"Wonderchef","schedule":"10 AM to 6 PM ","marker_image":"https:\/\/cdn.shopify.com\/s\/files\/1\/0104\/9211\/7092\/files\/location-marker_3.png?7502298235998040035","address":"Book a demo","country":"India","state":"Arunachal Pradesh","city":"Seppa","postal":"790102","priority":1},{"lat":"27.6333","lng":"93.8333","id":3370255,"name":"Wonderchef","schedule":"10 AM to 6 PM ","marker_image":"https:\/\/cdn.shopify.com\/s\/files\/1\/0104\/9211\/7092\/files\/location-marker_3.png?7502298235998040035","address":"Book a demo","country":"India","state":"Arunachal Pradesh","city":"Daporijo","postal":"791122","priority":1},{"lat":"26.1","lng":"91.8167","id":3370256,"name":"Wonderchef","schedule":"10 AM to 6 PM ","marker_image":"https:\/\/cdn.shopify.com\/s\/files\/1\/0104\/9211\/7092\/files\/location-marker_3.png?7502298235998040035","address":"Book a demo","country":"India","state":"Assam","city":"Guwahati","postal":"781022","priority":1},{"lat":"24.8512","lng":"93.8464","id":3370257,"name":"Wonderchef","schedule":"10 AM to 6 PM ","marker_image":"https:\/\/cdn.shopify.com\/s\/files\/1\/0104\/9211\/7092\/files\/location-marker_3.png?7502298235998040035","address":"Book a demo","country":"India","state":"Manipur","city":"Imphal","postal":"795004","priority":1},{"lat":"27.15","lng":"93.75","id":3370258,"name":"Wonderchef","schedule":"10 AM to 6 PM ","marker_image":"https:\/\/cdn.shopify.com\/s\/files\/1\/0104\/9211\/7092\/files\/location-marker_3.png?7502298235998040035","address":"Book a demo","country":"India","state":"Arunachal Pradesh","city":"Ziro","postal":"791111","priority":1},{"lat":"24.8512","lng":"93.8464","id":3370259,"name":"Wonderchef","schedule":"10 AM to 6 PM ","marker_image":"https:\/\/cdn.shopify.com\/s\/files\/1\/0104\/9211\/7092\/files\/location-marker_3.png?7502298235998040035","address":"Book a demo","country":"India","state":"Manipur","city":"Ukhrul","postal":"795010","priority":1},{"lat":"25.586264","lng":"91.990271","id":3370260,"name":"Wonderchef","schedule":"10 AM to 6 PM ","marker_image":"https:\/\/cdn.shopify.com\/s\/files\/1\/0104\/9211\/7092\/files\/location-marker_3.png?7502298235998040035","address":"Book a demo","country":"India","state":"Meghalaya","city":"Shillong","postal":"793016","priority":1},{"lat":"27.5833","lng":"91.8667","id":3370261,"name":"Wonderchef","schedule":"10 AM to 6 PM ","marker_image":"https:\/\/cdn.shopify.com\/s\/files\/1\/0104\/9211\/7092\/files\/location-marker_3.png?7502298235998040035","address":"Book a demo","country":"India","state":"Arunachal Pradesh","city":"Seppa","postal":"790104","priority":1},{"lat":"27.102984","lng":"27.102984","id":3370262,"name":"Wonderchef","schedule":"10 AM to 6 PM ","marker_image":"https:\/\/cdn.shopify.com\/s\/files\/1\/0104\/9211\/7092\/files\/location-marker_3.png?7502298235998040035","address":"Book a demo","country":"India","state":"Arunachal Pradesh","city":"Naharlagun","postal":"791110","priority":1},{"lat":"22.569","lng":"88.3697","id":3370263,"name":"Wonderchef","schedule":"10 AM to 6 PM ","marker_image":"https:\/\/cdn.shopify.com\/s\/files\/1\/0104\/9211\/7092\/files\/location-marker_3.png?7502298235998040035","address":"Book a demo","country":"India","state":"West Bengal","city":"Kolkata","postal":"700033","priority":1},{"lat":"22.569","lng":"88.3697","id":3370264,"name":"Wonderchef","schedule":"10 AM to 6 PM ","marker_image":"https:\/\/cdn.shopify.com\/s\/files\/1\/0104\/9211\/7092\/files\/location-marker_3.png?7502298235998040035","address":"Book a demo","country":"India","state":"West Bengal","city":"Kolkata","postal":"700048","priority":1},{"lat":"25.005253","lng":"93.899007","id":3370265,"name":"Wonderchef","schedule":"10 AM to 6 PM ","marker_image":"https:\/\/cdn.shopify.com\/s\/files\/1\/0104\/9211\/7092\/files\/location-marker_3.png?7502298235998040035","address":"Book a demo","country":"India","state":"Manipur","city":"KANGPOKPI","postal":"795107","priority":1},{"lat":"26.121642","lng":"91.7992","id":3370266,"name":"Wonderchef","schedule":"10 AM to 6 PM ","marker_image":"https:\/\/cdn.shopify.com\/s\/files\/1\/0104\/9211\/7092\/files\/location-marker_3.png?7502298235998040035","address":"Book a demo","country":"India","state":"Assam","city":"Guwahati","postal":"781028","priority":1},{"lat":"27.6333","lng":"93.8333","id":3370267,"name":"Wonderchef","schedule":"10 AM to 6 PM ","marker_image":"https:\/\/cdn.shopify.com\/s\/files\/1\/0104\/9211\/7092\/files\/location-marker_3.png?7502298235998040035","address":"Book a demo","country":"India","state":"Arunachal Pradesh","city":"Ziro","postal":"791120","priority":1},{"lat":"27.25","lng":"92.4","id":3370268,"name":"Wonderchef","schedule":"10 AM to 6 PM ","marker_image":"https:\/\/cdn.shopify.com\/s\/files\/1\/0104\/9211\/7092\/files\/location-marker_3.png?7502298235998040035","address":"Book a demo","country":"India","state":"Arunachal Pradesh","city":"Bomdila","postal":"790001","priority":1},{"lat":"24.3333","lng":"93.6667","id":3370269,"name":"Wonderchef","schedule":"10 AM to 6 PM ","marker_image":"https:\/\/cdn.shopify.com\/s\/files\/1\/0104\/9211\/7092\/files\/location-marker_3.png?7502298235998040035","address":"Book a demo","country":"India","state":"Manipur","city":"Churachandpur","postal":"795128","priority":1},{"lat":"21.3244","lng":"81.9627","id":3370270,"name":"Wonderchef","schedule":"10 AM to 6 PM ","marker_image":"https:\/\/cdn.shopify.com\/s\/files\/1\/0104\/9211\/7092\/files\/location-marker_3.png?7502298235998040035","address":"Book a demo","country":"India","state":"Chhattisgarh","city":"Raipur","postal":"492001","priority":1},{"lat":"24.75","lng":"93.4333","id":3370271,"name":"Wonderchef","schedule":"10 AM to 6 PM ","marker_image":"https:\/\/cdn.shopify.com\/s\/files\/1\/0104\/9211\/7092\/files\/location-marker_3.png?7502298235998040035","address":"Book a demo","country":"India","state":"Manipur","city":"TAMENGLONG","postal":"795147","priority":1},{"lat":"25.4643","lng":"91.7571","id":3370272,"name":"Wonderchef","schedule":"10 AM to 6 PM ","marker_image":"https:\/\/cdn.shopify.com\/s\/files\/1\/0104\/9211\/7092\/files\/location-marker_3.png?7502298235998040035","address":"Book a demo","country":"India","state":"Meghalaya","city":"Shillong","postal":"793001","priority":1},{"lat":"27.8333","lng":"95.8667","id":3370273,"name":"Wonderchef","schedule":"10 AM to 6 PM ","marker_image":"https:\/\/cdn.shopify.com\/s\/files\/1\/0104\/9211\/7092\/files\/location-marker_3.png?7502298235998040035","address":"Book a demo","country":"India","state":"Arunachal Pradesh","city":"Roing","postal":"792110","priority":1},{"lat":"25.45","lng":"92.2","id":3370274,"name":"Wonderchef","schedule":"10 AM to 6 PM ","marker_image":"https:\/\/cdn.shopify.com\/s\/files\/1\/0104\/9211\/7092\/files\/location-marker_3.png?7502298235998040035","address":"Book a demo","country":"India","state":"Meghalaya","city":"Jowai","postal":"793150","priority":1},{"lat":"24.8512","lng":"93.8464","id":3370275,"name":"Wonderchef","schedule":"10 AM to 6 PM ","marker_image":"https:\/\/cdn.shopify.com\/s\/files\/1\/0104\/9211\/7092\/files\/location-marker_3.png?7502298235998040035","address":"Book a demo","country":"India","state":"Manipur","city":"Imphal","postal":"795010","priority":1},{"lat":"27.15","lng":"93.75","id":3370276,"name":"Wonderchef","schedule":"10 AM to 6 PM ","marker_image":"https:\/\/cdn.shopify.com\/s\/files\/1\/0104\/9211\/7092\/files\/location-marker_3.png?7502298235998040035","address":"Book a demo","country":"India","state":"Arunachal Pradesh","city":"Doimukh","postal":"791112","priority":1},{"lat":"28.1667","lng":"94.7667","id":3370277,"name":"Wonderchef","schedule":"10 AM to 6 PM ","marker_image":"https:\/\/cdn.shopify.com\/s\/files\/1\/0104\/9211\/7092\/files\/location-marker_3.png?7502298235998040035","address":"Book a demo","country":"India","state":"Arunachal Pradesh","city":"Aalo","postal":"791001","priority":1},{"lat":"31.3256","lng":"75.5792","id":3370278,"name":"Wonderchef","schedule":"10 AM to 6 PM ","marker_image":"https:\/\/cdn.shopify.com\/s\/files\/1\/0104\/9211\/7092\/files\/location-marker_3.png?7502298235998040035","address":"Book a demo","country":"India","state":"Punjab","city":"Jalandhar","postal":"144001","priority":1},{"lat":"30.3667","lng":"75.8667","id":3370279,"name":"Wonderchef","schedule":"10 AM to 6 PM ","marker_image":"https:\/\/cdn.shopify.com\/s\/files\/1\/0104\/9211\/7092\/files\/location-marker_3.png?7502298235998040035","address":"Book a demo","country":"India","state":"Punjab","city":"Ahmedgarh","postal":"148021","priority":1},{"lat":"30.8676","lng":"75.8444","id":3370280,"name":"Wonderchef","schedule":"10 AM to 6 PM ","marker_image":"https:\/\/cdn.shopify.com\/s\/files\/1\/0104\/9211\/7092\/files\/location-marker_3.png?7502298235998040035","address":"Book a demo","country":"India","state":"Punjab","city":"Ludhiana","postal":"141001","priority":1},{"lat":"30.5224","lng":"77.046","id":3370281,"name":"Wonderchef","schedule":"10 AM to 6 PM ","marker_image":"https:\/\/cdn.shopify.com\/s\/files\/1\/0104\/9211\/7092\/files\/location-marker_3.png?7502298235998040035","address":"Book a demo","country":"India","state":"Haryana","city":"Ambala","postal":"134112","priority":1},{"lat":"31.6331","lng":"74.8656","id":3370282,"name":"Wonderchef","schedule":"10 AM to 6 PM ","marker_image":"https:\/\/cdn.shopify.com\/s\/files\/1\/0104\/9211\/7092\/files\/location-marker_3.png?7502298235998040035","address":"Book a demo","country":"India","state":"Punjab","city":"Amritsar","postal":"143001","priority":1},{"lat":"28.09","lng":"76.9567","id":3370283,"name":"Wonderchef","schedule":"10 AM to 6 PM ","marker_image":"https:\/\/cdn.shopify.com\/s\/files\/1\/0104\/9211\/7092\/files\/location-marker_3.png?7502298235998040035","address":"Book a demo","country":"India","state":"Haryana","city":"Gurgaon","postal":"122001","priority":1},{"lat":"28.55","lng":"77.2667","id":3370284,"name":"Wonderchef","schedule":"10 AM to 6 PM ","marker_image":"https:\/\/cdn.shopify.com\/s\/files\/1\/0104\/9211\/7092\/files\/location-marker_3.png?7502298235998040035","address":"Book a demo","country":"India","state":"Delhi","city":"New Delhi","postal":"110018","priority":1},{"lat":"28.978785","lng":"77.639871","id":3370285,"name":"Wonderchef","schedule":"10 AM to 6 PM ","marker_image":"https:\/\/cdn.shopify.com\/s\/files\/1\/0104\/9211\/7092\/files\/location-marker_3.png?7502298235998040035","address":"Book a demo","country":"India","state":"Uttar Pradesh","city":"Meerut","postal":"250005","priority":1},{"lat":"30.5224","lng":"77.046","id":3370286,"name":"Wonderchef","schedule":"10 AM to 6 PM ","marker_image":"https:\/\/cdn.shopify.com\/s\/files\/1\/0104\/9211\/7092\/files\/location-marker_3.png?7502298235998040035","address":"Book a demo","country":"India","state":"Haryana","city":"Ambala","postal":"134003","priority":1},{"lat":"28.720263","lng":"77.106253","id":3370287,"name":"Wonderchef","schedule":"10 AM to 6 PM ","marker_image":"https:\/\/cdn.shopify.com\/s\/files\/1\/0104\/9211\/7092\/files\/location-marker_3.png?7502298235998040035","address":"Book a demo","country":"India","state":"Delhi","city":"New Delhi","postal":"110085","priority":1},{"lat":"28.9915","lng":"76.2541","id":3370288,"name":"Wonderchef","schedule":"10 AM to 6 PM ","marker_image":"https:\/\/cdn.shopify.com\/s\/files\/1\/0104\/9211\/7092\/files\/location-marker_3.png?7502298235998040035","address":"Book a demo","country":"India","state":"Haryana","city":"Faridabad","postal":"121002","priority":1},{"lat":"28.587785","lng":"28.587785","id":3370289,"name":"Wonderchef","schedule":"10 AM to 6 PM ","marker_image":"https:\/\/cdn.shopify.com\/s\/files\/1\/0104\/9211\/7092\/files\/location-marker_3.png?7502298235998040035","address":"Book a demo","country":"India","state":"Uttar Pradesh","city":"Noida","postal":"201301","priority":1},{"lat":"28.71823","lng":"77.108399","id":3370290,"name":"Wonderchef","schedule":"10 AM to 6 PM ","marker_image":"https:\/\/cdn.shopify.com\/s\/files\/1\/0104\/9211\/7092\/files\/location-marker_3.png?7502298235998040035","address":"Book a demo","country":"India","state":"Delhi","city":"New Delhi","postal":"110085","priority":1},{"lat":"31.95593","lng":"75.616072","id":3370291,"name":"Wonderchef","schedule":"10 AM to 6 PM ","marker_image":"https:\/\/cdn.shopify.com\/s\/files\/1\/0104\/9211\/7092\/files\/location-marker_3.png?7502298235998040035","address":"Book a demo","country":"India","state":"Punjab","city":"Mukerian","postal":"144211","priority":1},{"lat":"30.2333","lng":"75.8333","id":3370292,"name":"Wonderchef","schedule":"10 AM to 6 PM ","marker_image":"https:\/\/cdn.shopify.com\/s\/files\/1\/0104\/9211\/7092\/files\/location-marker_3.png?7502298235998040035","address":"Book a demo","country":"India","state":"Punjab","city":"Sangrur","postal":"148001","priority":1},{"lat":"28.581744","lng":"77.047652","id":3370293,"name":"Wonderchef","schedule":"10 AM to 6 PM ","marker_image":"https:\/\/cdn.shopify.com\/s\/files\/1\/0104\/9211\/7092\/files\/location-marker_3.png?7502298235998040035","address":"Book a demo","country":"India","state":"Delhi","city":"New Delhi","postal":"110075","priority":1},{"lat":"29.752","lng":"76.6199","id":3370294,"name":"Wonderchef","schedule":"10 AM to 6 PM ","marker_image":"https:\/\/cdn.shopify.com\/s\/files\/1\/0104\/9211\/7092\/files\/location-marker_3.png?7502298235998040035","address":"Book a demo","country":"India","state":"Haryana","city":"Karnal","postal":"132001","priority":1},{"lat":"28.1833","lng":"76.6167","id":3370295,"name":"Wonderchef","schedule":"10 AM to 6 PM ","marker_image":"https:\/\/cdn.shopify.com\/s\/files\/1\/0104\/9211\/7092\/files\/location-marker_3.png?7502298235998040035","address":"Book a demo","country":"India","state":"Haryana","city":"Rewari","postal":"123401","priority":1},{"lat":"28.9","lng":"76.5667","id":3370296,"name":"Wonderchef","schedule":"10 AM to 6 PM ","marker_image":"https:\/\/cdn.shopify.com\/s\/files\/1\/0104\/9211\/7092\/files\/location-marker_3.png?7502298235998040035","address":"Book a demo","country":"India","state":"Haryana","city":"Rohtak","postal":"124001","priority":1},{"lat":"29.3111","lng":"76.9924","id":3370297,"name":"Wonderchef","schedule":"10 AM to 6 PM ","marker_image":"https:\/\/cdn.shopify.com\/s\/files\/1\/0104\/9211\/7092\/files\/location-marker_3.png?7502298235998040035","address":"Book a demo","country":"India","state":"Haryana","city":"Panipat","postal":"132103","priority":1},{"lat":"28.645878","lng":"77.374389","id":3370298,"name":"Wonderchef","schedule":"10 AM to 6 PM ","marker_image":"https:\/\/cdn.shopify.com\/s\/files\/1\/0104\/9211\/7092\/files\/location-marker_3.png?7502298235998040035","address":"Book a demo","country":"India","state":"Uttar Pradesh","city":"Ghaziabad","postal":"201014","priority":1},{"lat":"28.7556","lng":"77.1667","id":3370299,"name":"Wonderchef","schedule":"10 AM to 6 PM ","marker_image":"https:\/\/cdn.shopify.com\/s\/files\/1\/0104\/9211\/7092\/files\/location-marker_3.png?7502298235998040035","address":"Book a demo","country":"India","state":"Delhi","city":"Delhi","postal":"110031","priority":1},{"lat":"28.6488","lng":"77.1726","id":3370300,"name":"Wonderchef","schedule":"10 AM to 6 PM ","marker_image":"https:\/\/cdn.shopify.com\/s\/files\/1\/0104\/9211\/7092\/files\/location-marker_3.png?7502298235998040035","address":"Book a demo","country":"India","state":"Uttar Pradesh","city":"Noida","postal":"110092","priority":1},{"lat":"18.892995","lng":"79.426481","id":3370301,"name":"Wonderchef","schedule":"10 AM to 6 PM ","marker_image":"https:\/\/cdn.shopify.com\/s\/files\/1\/0104\/9211\/7092\/files\/location-marker_3.png?7502298235998040035","address":"Book a demo","country":"India","state":"Andhra Pradesh","city":"Adilabad","postal":"504208","priority":1},{"lat":"9.940073","lng":"76.297261","id":3370302,"name":"Wonderchef","schedule":"10 AM to 6 PM ","marker_image":"https:\/\/cdn.shopify.com\/s\/files\/1\/0104\/9211\/7092\/files\/location-marker_3.png?7502298235998040035","address":"Book a demo","country":"India","state":"Kerala","city":"Ernakulam","postal":"682013","priority":1},{"lat":"13.0499","lng":"77.1594","id":3370303,"name":"Wonderchef","schedule":"10 AM to 6 PM ","marker_image":"https:\/\/cdn.shopify.com\/s\/files\/1\/0104\/9211\/7092\/files\/location-marker_3.png?7502298235998040035","address":"Book a demo","country":"India","state":"Karnataka","city":"Bangalore","postal":"560078","priority":1},{"lat":"10.9375","lng":"76.975","id":3370304,"name":"Wonderchef","schedule":"10 AM to 6 PM ","marker_image":"https:\/\/cdn.shopify.com\/s\/files\/1\/0104\/9211\/7092\/files\/location-marker_3.png?7502298235998040035","address":"Book a demo","country":"India","state":"Tamil Nadu","city":"Coimbatore","postal":"641002","priority":1},{"lat":"13.0499","lng":"77.1594","id":3370305,"name":"Wonderchef","schedule":"10 AM to 6 PM ","marker_image":"https:\/\/cdn.shopify.com\/s\/files\/1\/0104\/9211\/7092\/files\/location-marker_3.png?7502298235998040035","address":"Book a demo","country":"India","state":"Karnataka","city":"Bangalore","postal":"560078","priority":1},{"lat":"13.328976","lng":"77.10945","id":3370306,"name":"Wonderchef","schedule":"10 AM to 6 PM ","marker_image":"https:\/\/cdn.shopify.com\/s\/files\/1\/0104\/9211\/7092\/files\/location-marker_3.png?7502298235998040035","address":"Book a demo","country":"India","state":"Karnataka","city":"Tumkur","postal":"572102","priority":1},{"lat":"13.0499","lng":"77.1594","id":3370307,"name":"Wonderchef","schedule":"10 AM to 6 PM ","marker_image":"https:\/\/cdn.shopify.com\/s\/files\/1\/0104\/9211\/7092\/files\/location-marker_3.png?7502298235998040035","address":"Book a demo","country":"India","state":"Karnataka","city":"Bangalore","postal":"560097","priority":1},{"lat":"13.18459","lng":"75.813672","id":3370308,"name":"Wonderchef","schedule":"10 AM to 6 PM ","marker_image":"https:\/\/cdn.shopify.com\/s\/files\/1\/0104\/9211\/7092\/files\/location-marker_3.png?7502298235998040035","address":"Book a demo","country":"India","state":"Karnataka","city":"Belur","postal":"573115","priority":1},{"lat":"12.327988","lng":"76.595936","id":3370309,"name":"Wonderchef","schedule":"10 AM to 6 PM ","marker_image":"https:\/\/cdn.shopify.com\/s\/files\/1\/0104\/9211\/7092\/files\/location-marker_3.png?7502298235998040035","address":"Book a demo","country":"India","state":"Karnataka","city":"Mysore","postal":"570017","priority":1},{"lat":"17.325568","lng":"76.839119","id":3370310,"name":"Wonderchef","schedule":"10 AM to 6 PM ","marker_image":"https:\/\/cdn.shopify.com\/s\/files\/1\/0104\/9211\/7092\/files\/location-marker_3.png?7502298235998040035","address":"Book a demo","country":"India","state":"Karnataka","city":"Gulbarga","postal":"585105","priority":1},{"lat":"12.992314","lng":"77.490514","id":3370311,"name":"Wonderchef","schedule":"10 AM to 6 PM ","marker_image":"https:\/\/cdn.shopify.com\/s\/files\/1\/0104\/9211\/7092\/files\/location-marker_3.png?7502298235998040035","address":"Book a demo","country":"India","state":"Karnataka","city":"Bangalore","postal":"560091","priority":1},{"lat":"15.8677","lng":"80.4563","id":3370312,"name":"Wonderchef","schedule":"10 AM to 6 PM ","marker_image":"https:\/\/cdn.shopify.com\/s\/files\/1\/0104\/9211\/7092\/files\/location-marker_3.png?7502298235998040035","address":"Book a demo","country":"India","state":"Andhra Pradesh","city":"Vijaywada","postal":"520001","priority":1},{"lat":"12.931159","lng":"77.544586","id":3370313,"name":"Wonderchef","schedule":"10 AM to 6 PM ","marker_image":"https:\/\/cdn.shopify.com\/s\/files\/1\/0104\/9211\/7092\/files\/location-marker_3.png?7502298235998040035","address":"Book a demo","country":"India","state":"Karnataka","city":"Bangalore","postal":"560085","priority":1},{"lat":"13.022974","lng":"76.124749","id":3370314,"name":"Wonderchef","schedule":"10 AM to 6 PM ","marker_image":"https:\/\/cdn.shopify.com\/s\/files\/1\/0104\/9211\/7092\/files\/location-marker_3.png?7502298235998040035","address":"Book a demo","country":"India","state":"Karnataka","city":"Hassan","postal":"573202","priority":1},{"lat":"13.063669","lng":"77.591751","id":3370315,"name":"Wonderchef","schedule":"10 AM to 6 PM ","marker_image":"https:\/\/cdn.shopify.com\/s\/files\/1\/0104\/9211\/7092\/files\/location-marker_3.png?7502298235998040035","address":"Book a demo","country":"India","state":"Karnataka","city":"Bangalore","postal":"560092","priority":1},{"lat":"12.5417","lng":"74.975","id":3370316,"name":"Wonderchef","schedule":"10 AM to 6 PM ","marker_image":"https:\/\/cdn.shopify.com\/s\/files\/1\/0104\/9211\/7092\/files\/location-marker_3.png?7502298235998040035","address":"Book a demo","country":"India","state":"Kerala","city":"Kasaragod","postal":"671541","priority":1},{"lat":"12.930262","lng":"74.934001","id":3370317,"name":"Wonderchef","schedule":"10 AM to 6 PM ","marker_image":"https:\/\/cdn.shopify.com\/s\/files\/1\/0104\/9211\/7092\/files\/location-marker_3.png?7502298235998040035","address":"Book a demo","country":"India","state":"Karnataka","city":"Mangalooru","postal":"574145","priority":1},{"lat":"19.855111","lng":"75.327926","id":3370318,"name":"Wonderchef","schedule":"10 AM to 6 PM ","marker_image":"https:\/\/cdn.shopify.com\/s\/files\/1\/0104\/9211\/7092\/files\/location-marker_3.png?7502298235998040035","address":"Book a demo","country":"India","state":"Maharashtra","city":"Aurangabad","postal":"431005","priority":1},{"lat":"20.9567","lng":"75.5533","id":3370319,"name":"Wonderchef","schedule":"10 AM to 6 PM ","marker_image":"https:\/\/cdn.shopify.com\/s\/files\/1\/0104\/9211\/7092\/files\/location-marker_3.png?7502298235998040035","address":"Book a demo","country":"India","state":"Maharashtra","city":"Jalgaon","postal":"425001","priority":1},{"lat":"18.450668","lng":"73.891746","id":3370320,"name":"Wonderchef","schedule":"10 AM to 6 PM ","marker_image":"https:\/\/cdn.shopify.com\/s\/files\/1\/0104\/9211\/7092\/files\/location-marker_3.png?7502298235998040035","address":"Book a demo","country":"India","state":"Maharashtra","city":"Mumbai","postal":"411048","priority":1},{"lat":"22.8023","lng":"75.5605","id":3370321,"name":"Wonderchef","schedule":"10 AM to 6 PM ","marker_image":"https:\/\/cdn.shopify.com\/s\/files\/1\/0104\/9211\/7092\/files\/location-marker_3.png?7502298235998040035","address":"Book a demo","country":"India","state":"Madhya Pradesh","city":"Indore","postal":"452001","priority":1},{"lat":"19.0167","lng":"72.85","id":3370322,"name":"Wonderchef","schedule":"10 AM to 6 PM ","marker_image":"https:\/\/cdn.shopify.com\/s\/files\/1\/0104\/9211\/7092\/files\/location-marker_3.png?7502298235998040035","address":"Book a demo","country":"India","state":"Maharashtra","city":"Mumbai","postal":"400028","priority":1},{"lat":"19.287956","lng":"72.88359","id":3370323,"name":"Wonderchef","schedule":"10 AM to 6 PM ","marker_image":"https:\/\/cdn.shopify.com\/s\/files\/1\/0104\/9211\/7092\/files\/location-marker_3.png?7502298235998040035","address":"Book a demo","country":"India","state":"Maharashtra","city":"Mumbai","postal":"401107","priority":1},{"lat":"24.4375","lng":"75.1375","id":3370324,"name":"Wonderchef","schedule":"10 AM to 6 PM ","marker_image":"https:\/\/cdn.shopify.com\/s\/files\/1\/0104\/9211\/7092\/files\/location-marker_3.png?7502298235998040035","address":"Book a demo","country":"India","state":"Madhya Pradesh","city":"Mandasur","postal":"458001","priority":1},{"lat":"22.84","lng":"73.01","id":3370325,"name":"Wonderchef","schedule":"10 AM to 6 PM ","marker_image":"https:\/\/cdn.shopify.com\/s\/files\/1\/0104\/9211\/7092\/files\/location-marker_3.png?7502298235998040035","address":"Book a demo","country":"India","state":"Gujarat","city":"Nadiad","postal":"387001","priority":1},{"lat":"26.1748","lng":"74.8799","id":3370326,"name":"Wonderchef","schedule":"10 AM to 6 PM ","marker_image":"https:\/\/cdn.shopify.com\/s\/files\/1\/0104\/9211\/7092\/files\/location-marker_3.png?7502298235998040035","address":"Book a demo","country":"India","state":"Rajasthan","city":"Jaipur","postal":"302004","priority":1},{"lat":"22.31925","lng":"73.136843","id":3370327,"name":"Wonderchef","schedule":"10 AM to 6 PM ","marker_image":"https:\/\/cdn.shopify.com\/s\/files\/1\/0104\/9211\/7092\/files\/location-marker_3.png?7502298235998040035","address":"Book a demo","country":"India","state":"Gujarat","city":"Vadodara","postal":"390021","priority":1},{"lat":"19.03938","lng":"73.015859","id":3370328,"name":"Wonderchef","schedule":"10 AM to 6 PM ","marker_image":"https:\/\/cdn.shopify.com\/s\/files\/1\/0104\/9211\/7092\/files\/location-marker_3.png?7502298235998040035","address":"Book a demo","country":"India","state":"Maharashtra","city":"Navi Mumbai","postal":"400706","priority":1},{"lat":"19.2","lng":"72.9833","id":3370329,"name":"Wonderchef","schedule":"10 AM to 6 PM ","marker_image":"https:\/\/cdn.shopify.com\/s\/files\/1\/0104\/9211\/7092\/files\/location-marker_3.png?7502298235998040035","address":"Book a demo","country":"India","state":"Maharashtra","city":"Thane","postal":"400605","priority":1},{"lat":"23.181","lng":"80.2514","id":3370330,"name":"Wonderchef","schedule":"10 AM to 6 PM ","marker_image":"https:\/\/cdn.shopify.com\/s\/files\/1\/0104\/9211\/7092\/files\/location-marker_3.png?7502298235998040035","address":"Book a demo","country":"India","state":"Madhya Pradesh","city":"Jabalpur","postal":"482001","priority":1},{"lat":"23.194443","lng":"72.635026","id":3370331,"name":"Wonderchef","schedule":"10 AM to 6 PM ","marker_image":"https:\/\/cdn.shopify.com\/s\/files\/1\/0104\/9211\/7092\/files\/location-marker_3.png?7502298235998040035","address":"Book a demo","country":"India","state":"Gujarat","city":"Gandhinagar","postal":"382001","priority":1},{"lat":"23.5","lng":"70.6917","id":3370332,"name":"Wonderchef","schedule":"10 AM to 6 PM ","marker_image":"https:\/\/cdn.shopify.com\/s\/files\/1\/0104\/9211\/7092\/files\/location-marker_3.png?7502298235998040035","address":"Book a demo","country":"India","state":"Gujarat","city":"Anjar","postal":"370110","priority":1},{"lat":"21.3244","lng":"81.9627","id":3370333,"name":"Wonderchef","schedule":"10 AM to 6 PM ","marker_image":"https:\/\/cdn.shopify.com\/s\/files\/1\/0104\/9211\/7092\/files\/location-marker_3.png?7502298235998040035","address":"Book a demo","country":"India","state":"Chhattisgarh","city":"Raipur","postal":"492001","priority":1},{"lat":"19.000047","lng":"73.147469","id":3370334,"name":"Wonderchef","schedule":"10 AM to 6 PM ","marker_image":"https:\/\/cdn.shopify.com\/s\/files\/1\/0104\/9211\/7092\/files\/location-marker_3.png?7502298235998040035","address":"Book a demo","country":"India","state":"Maharashtra","city":"Alibag","postal":"410206","priority":1},{"lat":"20.3583","lng":"72.8208","id":3370335,"name":"Wonderchef","schedule":"10 AM to 6 PM ","marker_image":"https:\/\/cdn.shopify.com\/s\/files\/1\/0104\/9211\/7092\/files\/location-marker_3.png?7502298235998040035","address":"Book a demo","country":"India","state":"Gujarat","city":"Valsad","postal":"396125","priority":1},{"lat":"23.127943","lng":"77.420857","id":3370336,"name":"Wonderchef","schedule":"10 AM to 6 PM ","marker_image":"https:\/\/cdn.shopify.com\/s\/files\/1\/0104\/9211\/7092\/files\/location-marker_3.png?7502298235998040035","address":"Book a demo","country":"India","state":"Madhya Pradesh","city":"BHOPAL","postal":"462042","priority":1},{"lat":"18.9321","lng":"76.5179","id":3370337,"name":"Wonderchef","schedule":"10 AM to 6 PM ","marker_image":"https:\/\/cdn.shopify.com\/s\/files\/1\/0104\/9211\/7092\/files\/location-marker_3.png?7502298235998040035","address":"Book a demo","country":"India","state":"Maharashtra","city":"Jalgaon","postal":"431203","priority":1},{"lat":"20.6","lng":"72.9","id":3370338,"name":"Wonderchef","schedule":"10 AM to 6 PM ","marker_image":"https:\/\/cdn.shopify.com\/s\/files\/1\/0104\/9211\/7092\/files\/location-marker_3.png?7502298235998040035","address":"Book a demo","country":"India","state":"Gujarat","city":"Valsad","postal":"396001","priority":1},{"lat":"21.204168","lng":"72.772084","id":3370339,"name":"Wonderchef","schedule":"10 AM to 6 PM ","marker_image":"https:\/\/cdn.shopify.com\/s\/files\/1\/0104\/9211\/7092\/files\/location-marker_3.png?7502298235998040035","address":"Book a demo","country":"India","state":"Gujarat","city":"Surat","postal":"395009","priority":1},{"lat":"19.99956","lng":"73.72146","id":3370340,"name":"Wonderchef","schedule":"10 AM to 6 PM ","marker_image":"https:\/\/cdn.shopify.com\/s\/files\/1\/0104\/9211\/7092\/files\/location-marker_3.png?7502298235998040035","address":"Book a demo","country":"India","state":"Maharashtra","city":"Nashik","postal":"422007","priority":1},{"lat":"19.1375","lng":"74.725","id":3370341,"name":"Wonderchef","schedule":"10 AM to 6 PM ","marker_image":"https:\/\/cdn.shopify.com\/s\/files\/1\/0104\/9211\/7092\/files\/location-marker_3.png?7502298235998040035","address":"Book a demo","country":"India","state":"Maharashtra","city":"Ahmednagar","postal":"414001","priority":1},{"lat":"18.374917","lng":"76.505708","id":3370342,"name":"Wonderchef","schedule":"10 AM to 6 PM ","marker_image":"https:\/\/cdn.shopify.com\/s\/files\/1\/0104\/9211\/7092\/files\/location-marker_3.png?7502298235998040035","address":"Book a demo","country":"India","state":"Maharashtra","city":"Latur","postal":"413531","priority":1},{"lat":"21.823991","lng":"76.380515","id":3370343,"name":"Wonderchef","schedule":"10 AM to 6 PM ","marker_image":"https:\/\/cdn.shopify.com\/s\/files\/1\/0104\/9211\/7092\/files\/location-marker_3.png?7502298235998040035","address":"Book a demo","country":"India","state":"Madhya Pradesh","city":"Khandwa","postal":"450001","priority":1},{"lat":"21.15","lng":"79.1","id":3370344,"name":"Wonderchef","schedule":"10 AM to 6 PM ","marker_image":"https:\/\/cdn.shopify.com\/s\/files\/1\/0104\/9211\/7092\/files\/location-marker_3.png?7502298235998040035","address":"Book a demo","country":"India","state":"Maharashtra","city":"Nagpur","postal":"440001","priority":1},{"lat":"19.851169","lng":"79.480523","id":3370345,"name":"Wonderchef","schedule":"10 AM to 6 PM ","marker_image":"https:\/\/cdn.shopify.com\/s\/files\/1\/0104\/9211\/7092\/files\/location-marker_3.png?7502298235998040035","address":"Book a demo","country":"India","state":"Maharashtra","city":"Ballarpur","postal":"442701","priority":1},{"lat":"21.15","lng":"79.1","id":3370346,"name":"Wonderchef","schedule":"10 AM to 6 PM ","marker_image":"https:\/\/cdn.shopify.com\/s\/files\/1\/0104\/9211\/7092\/files\/location-marker_3.png?7502298235998040035","address":"Book a demo","country":"India","state":"Maharashtra","city":"Nagpur","postal":"440027","priority":1},{"lat":"20.901403","lng":"74.773572","id":3370347,"name":"Wonderchef","schedule":"10 AM to 6 PM ","marker_image":"https:\/\/cdn.shopify.com\/s\/files\/1\/0104\/9211\/7092\/files\/location-marker_3.png?7502298235998040035","address":"Book a demo","country":"India","state":"Maharashtra","city":"Dhule","postal":"424001","priority":1},{"lat":"22.7556","lng":"76.6389","id":3370348,"name":"Wonderchef","schedule":"10 AM to 6 PM ","marker_image":"https:\/\/cdn.shopify.com\/s\/files\/1\/0104\/9211\/7092\/files\/location-marker_3.png?7502298235998040035","address":"Book a demo","country":"India","state":"Madhya Pradesh","city":"Dewas","postal":"455001","priority":1},{"lat":"21.15","lng":"79.1","id":3370349,"name":"Wonderchef","schedule":"10 AM to 6 PM ","marker_image":"https:\/\/cdn.shopify.com\/s\/files\/1\/0104\/9211\/7092\/files\/location-marker_3.png?7502298235998040035","address":"Book a demo","country":"India","state":"Maharashtra","city":"Nagpur","postal":"440025","priority":1},{"lat":"21.7917","lng":"72.7917","id":3370350,"name":"Wonderchef","schedule":"10 AM to 6 PM ","marker_image":"https:\/\/cdn.shopify.com\/s\/files\/1\/0104\/9211\/7092\/files\/location-marker_3.png?7502298235998040035","address":"Book a demo","country":"India","state":"Gujarat","city":"BHARUCH","postal":"392011","priority":1},{"lat":"21.15","lng":"79.1","id":3370351,"name":"Wonderchef","schedule":"10 AM to 6 PM ","marker_image":"https:\/\/cdn.shopify.com\/s\/files\/1\/0104\/9211\/7092\/files\/location-marker_3.png?7502298235998040035","address":"Book a demo","country":"India","state":"Maharashtra","city":"Nagpur","postal":"440027","priority":1},{"lat":"28.0667","lng":"73.3833","id":3370352,"name":"Wonderchef","schedule":"10 AM to 6 PM ","marker_image":"https:\/\/cdn.shopify.com\/s\/files\/1\/0104\/9211\/7092\/files\/location-marker_3.png?7502298235998040035","address":"Book a demo","country":"India","state":"Rajasthan","city":"Bikaner","postal":"334001","priority":1},{"lat":"21.897527","lng":"75.576316","id":3370353,"name":"Wonderchef","schedule":"10 AM to 6 PM ","marker_image":"https:\/\/cdn.shopify.com\/s\/files\/1\/0104\/9211\/7092\/files\/location-marker_3.png?7502298235998040035","address":"Book a demo","country":"India","state":"Madhya Pradesh","city":"Khargone","postal":"451001","priority":1},{"lat":"15.3167","lng":"73.9333","id":3370354,"name":"Wonderchef","schedule":"10 AM to 6 PM ","marker_image":"https:\/\/cdn.shopify.com\/s\/files\/1\/0104\/9211\/7092\/files\/location-marker_3.png?7502298235998040035","address":"Book a demo","country":"India","state":"Goa","city":"Benaulim","postal":"403716","priority":1},{"lat":"21.15","lng":"79.1","id":3370355,"name":"Wonderchef","schedule":"10 AM to 6 PM ","marker_image":"https:\/\/cdn.shopify.com\/s\/files\/1\/0104\/9211\/7092\/files\/location-marker_3.png?7502298235998040035","address":"Book a demo","country":"India","state":"Maharashtra","city":"Nagpur","postal":"440015","priority":1},{"lat":"21.15","lng":"79.1","id":3370356,"name":"Wonderchef","schedule":"10 AM to 6 PM ","marker_image":"https:\/\/cdn.shopify.com\/s\/files\/1\/0104\/9211\/7092\/files\/location-marker_3.png?7502298235998040035","address":"Book a demo","country":"India","state":"Maharashtra","city":"Nagpur","postal":"440008","priority":1},{"lat":"20.3556","lng":"78.0944","id":3370357,"name":"Wonderchef","schedule":"10 AM to 6 PM ","marker_image":"https:\/\/cdn.shopify.com\/s\/files\/1\/0104\/9211\/7092\/files\/location-marker_3.png?7502298235998040035","address":"Book a demo","country":"India","state":"Maharashtra","city":"Yavatmal","postal":"445001","priority":1}]